id,price,name,lat,lon,Baños,Recámaras,terreno
3,3287655,"Pre-Venta Departamentos, Zacatecas, Roma, Del Cuauhtemoc.",19.41584,-99.15967,1.0,1,
4,5790000,Cuauhtemoc Roma Norte Departamento como Nuevo en Av. Yucatan,19.41452,-99.16395,3.0,3,
6,3429250,"Venta de Departamento en Roma Norte, Cuauhtémoc con 1 recámara, ID: 56554",19.41239,-99.15623,1.0,1,43.0
7,3500000,"Venta de Departamento en Roma Norte, Cuauhtémoc con 1 recámara, ID: 60172",19.41092,-99.16622,1.0,1,52.0
8,3225000,Querétaro 37  / Roma Norte,19.41575,-99.15619,1.0,1,
9,3912000,Preventa exclusiva · Terraloza Roma Norte ·,19.42102,-99.16354,1.0,1,
10,4800000,DEPARATMENTO EN LA COL. ROMA NORTE,19.42205,-99.16614,1.0,2,
11,4500000,"Av. Yucatán 132, Roma Norte",19.41308,-99.16083,2.0,2,
12,3600000,Departamento en venta Avenida Chapultepec 246,19.42397,-99.16091,2.0,2,60.0
13,4550000,VENTA DEPTO 90m2 COL ROMA NORTE CDMX,19.41261,-99.16082,2.0,2,133.0
15,2600000,Departamento en Venta  Col Roma,19.41342,-99.15773,1.0,2,
18,4950000,"DEPARTAMENTO CON TERRAZA PRIVADA,  DE DOS NIVELES,  EN PLANTA BAJA",19.41528,-99.16032,2.0,2,99.0
19,2785000,"Venta de Departamento en Roma Norte, Cuauhtémoc con 1 recámara, ID: 56587",19.42186,-99.16364,1.0,1,34.0
20,4150000,"Departamento venta, Orizaba, Roma Norte, Cuauhtémoc",19.42387,-99.16104,2.0,2,
22,4200000,Departamento en venta Col Roma,19.41257,-99.15551,1.0,3,98.0
23,5990000,Departamento de dos niveles en la Roma Norte,19.4205,-99.15878,2.0,2,
26,20000000,PENTHOUSE EN LA CONDESA A MEDIA CUADRA DEL PARQUE ESPANA,19.41652,-99.17243,3.0,3,425.0
27,8200000,"Departamento en venta en Col. Roma Norte, Cuauhtémoc",19.41367,-99.16547,3.0,3,
28,3900000,"Departamento en venta, Roma Norte, Cuauhtémoc",19.41624,-99.15743,1.0,2,
29,3465000,"Venta de Departamento en Roma Norte, Cuauhtémoc con 1 recámara, ID: 56588",19.42186,-99.16364,1.0,1,42.0
30,3850000,Departamento en venta en la colonia Roma con la mejor ubicacion,19.42222,-99.15957,1.0,2,79.0
31,6850000,Departamento Nuevo en venta en la colonia Roma,19.41493,-99.15928,1.0,1,135.0
33,4695000,"14650 Av. Chapultepec, Roma Norte",19.42295,-99.16525,2.0,2,85.0
35,3395000,Venta De Departamento Roma Norte Cuauhtemoc,19.41849,-99.15673,1.0,1,
36,4290000,"Venta de Departamento en Roma Norte, Cuauhtémoc con 2 recámaras, ID: 56555",19.41239,-99.15623,2.0,2,59.0
38,4500000,DEPARTAMENTO EN VENTA ROMA NORTE,19.41816,-99.15845,2.0,2,
39,2975000,Depto Venta Roma Norte,19.42102,-99.16424,1.0,2,
40,3465000,Departamentos Venta Cuauhtémoc Roma Norte 38-DV-2522,19.4219,-99.16359,1.0,1,63.0
42,13500000,"DEPARTAMENTO EN VENTA COL. ROMA , CUAUHTEMOC, CDMX",19.41555,-99.16159,2.0,3,270.0
43,10600000,"DEPARTAMENTO EN VENTA COL. ROMA , CUAUHTÉMOC, CDMX",19.41555,-99.16159,3.0,3,190.0
44,8900000,"DEPARTAMENTO EN VENTA COL. ROMA CUAUHTÉMOC, CDMX",19.41555,-99.16159,2.0,2,160.0
54,8026360,"Venta de Departamento en Roma Sur, Cuauhtémoc con 2 recámaras, ID: 60173",19.41151,-99.16234,2.0,2,184.0
55,6380520,"Venta de Departamento en Roma Sur, Cuauhtémoc con 2 recámaras, ID: 60174",19.41151,-99.16234,2.0,2,158.0
56,4710600,"Venta de Departamento en Roma Sur, Cuauhtémoc con 2 recámaras, ID: 60171",19.41151,-99.16234,2.0,2,78.0
57,6306550,"Venta de Departamento en Roma Sur, Cuauhtémoc con 2 recámaras, ID: 60169",19.41151,-99.16234,2.0,2,120.0
58,6360510,"Venta de Departamento en Roma Sur, Cuauhtémoc con 2 recámaras, ID: 60175",19.41151,-99.16234,2.0,2,132.0
59,4714700,"Venta de Departamento en Roma Sur, Cuauhtémoc con 2 recámaras, ID: 60167",19.41151,-99.16234,2.0,2,83.0
60,5845980,"Venta de Departamento en Roma Sur, Cuauhtémoc con 2 recámaras, ID: 60166",19.41151,-99.16234,2.0,2,93.0
61,6661750,"Venta de Departamento en Roma Sur, Cuauhtémoc con 2 recámaras, ID: 60168",19.41151,-99.16234,2.0,2,103.0
62,6950000,"Venta de Departamento en Roma Norte, Cuauhtémoc con 2 recámaras, ID: 60556",19.42073,-99.16678,2.0,2,109.0
63,8200000,Amplio departamento en la Roma,19.41367,-99.16546,3.0,3,145.0
64,829998,BONITO Y AMPLIO DEPTO EN LA ROMA NORTE REMATE BANCARIO,19.41661,-99.16002,2.0,3,110.0
65,660884,REMATO DEPARTAMENTO EN LA ROMA,19.42207,-99.16695,1.0,3,120.0
67,724000,DEPTO EN ROMA NORTE MUY AMPLIO 180M2 REMATE BANCARIO,19.4204,-99.17452,2.0,3,180.0
68,628000,ATRACTIVO DEPARTAMENTO PRECIO DE REMATE ZONA CUAUHTEMOC,19.42074,-99.16538,2.0,3,100.0
69,3425000,"Departamentos en Preventa, cerca de Avenida Chapultepec",19.42015,-99.16976,1.0,1,42.0
70,5795000,Chapultepec 322 - Roma Norte,19.42299,-99.16423,2.0,2,
77,948631,DEPTO EN ROMA NORTE 110M2 REMATE BANCARIO,19.42193,-99.15585,2.0,3,110.0
78,628000,Hermoso Departamento en Roma Norte REMATE BANCARIO,19.42074,-99.16538,2.0,3,100.0
79,628000,BELLO DEPARTAMENTO SOBRE AV. OAXACA EN LA ROMA NORTE EN REMATE BANCARIO,19.42074,-99.16538,2.0,3,100.0
80,5995000,Magnífico departamento de 2 recámaras y 1 estudio,19.41413,-99.16053,2.0,2,
84,6850000,Penthouse en Venta en Roma con Roof privado,19.41952,-99.16254,2.0,2,
86,4238383,"Departamento en Preventa en Prisma en Col. Roma Norte,  2 Recámaras.",19.42402,-99.16076,2.0,2,82.0
87,3449064,"Departamento en Preventa en Prisma en Col. Roma Norte,  2 Recámara",19.42402,-99.16076,2.0,2,64.0
90,5328686,"Departamento en Preventa en Prisma en Col Roma Norte,  2 Recamaras.",19.42402,-99.16076,2.0,2,98.0
95,728614,EXELENTE DEPARTAMENTO EN REMATE BANCARIO EN CUAUHTEMOC,19.41936,-99.17431,2.0,3,180.0
99,4100000,Departamento en venta Roma Norte,19.4117,-99.16136,2.0,2,90.0
101,7500000,ENCANTADOR DEPTO 2 RECS ROMA NORTE,19.41571,-99.15774,2.0,2,
104,4600000,Departamento en Venta Colonia Roma,19.41518,-99.16035,2.0,3,127.0
105,7300000,DEPARTAMENTO EN VENTA EN CUAUHTEMOC,19.41946,-99.16253,2.0,2,
106,9900000,"Roma Norte, Alcaldía Cuauhtémoc, CDMX",19.41952,-99.16254,3.0,3,
107,7699000,"Condesa, Alcaldía Cuauhtémoc, Ciudad de México, CDMX",19.41608,-99.16345,1.0,1,
109,7200000,Departamento en Venta en la Colonia Roma,19.41399,-99.16053,2.0,2,100.0
117,9700000,"Departamento en Venta con jardín, Colonia Roma",19.4223,-99.15658,3.0,2,
118,8200000,"DEPARTAMENTO EXCLUSIVO EN VENTA, ROMA NORTE",19.42453,-99.15737,2.0,2,
119,3465935,"UNICO ROMA - Coahuila 28, Roma Norte | 1 HAB 1E",19.41239,-99.15623,1.0,1,41.0
120,3325922,"ICON ROMA - Insurgentes sur 179, Roma Norte | 1 hab 1E",19.42165,-99.16376,1.0,1,38.0
126,4244240,"UNICO ROMA - Coahuila 28, Roma Norte | 2 HAB 1E",19.41239,-99.15623,1.0,2,58.0
127,5500000,"DEPARTAMENTO EN VENTA EN LA COL. ROMA  $5,500,000 de 2R2BE1",19.41416,-99.16005,2.0,2,102.0
128,4321857,DEPARTAMENTO EN PREVENTA EN LA ROMA,19.42186,-99.16364,1.0,1,
129,3950000,DEPARTAMENTO EN PREVENTA EN LA ROMA,19.41247,-99.15622,2.0,2,
130,2833260,DEPARTAMENTO CON TERRAZA EN CHAPULTEPEC,19.42187,-99.16916,1.0,1,
137,4800000,"DEPARTAMENTO EXTERIOR EN VENTA EN EL CORAZÃ?N DE LA ROMA. AMPLIO, SOLEADO Y TRANQUILO.",19.41952,-99.16254,2.0,2,97.0
138,3595000,Departamento en Venta Roma Norte,19.41828,-99.15572,1.0,1,60.0
139,9305538,Departamento en venta en Roma Norte,19.42083,-99.15597,2.0,3,130.0
140,4495000,Departamento en Venta en Roma Norte,19.41363,-99.15733,2.0,3,86.0
141,4900000,"12207 - Callejón de Romita, Roma Norte",19.42321,-99.1543,1.0,1,63.0
142,4890000,"12284 Av. Yucatan, Roma Norte",19.41308,-99.16083,2.0,2,93.0
143,2792170,"13216 Av Chapultepec, Roma Norte",19.42186,-99.16916,1.0,1,32.0
144,4419100,Venta Departamentos En Coahuila Roma Norte,19.41084,-99.16522,2.0,2,74.0
145,8584000,Venta Departamentos Roma Norte Tonala,19.42,-99.17,2.0,2,83.0
151,5300600,Venta Departamentos  Roma Sur,19.42145,-99.16697,2.0,2,84.0
152,4120000,"D1278 - Salamanca, Roma Norte",19.42064,-99.17022,1.0,1,40.0
153,4492244,"14568 San Luis Potosí, Roma Norte",19.41374,-99.161,1.0,1,53.0
154,4550000,"13939 - Chiapas, Roma Norte",19.41461,-99.16192,2.0,2,89.0
155,4500000,"D1321 - Av. Chapultepec, Roma Norte",19.42408,-99.15982,1.0,1,58.0
156,3500000,"10516 Chihuahua, Roma Norte",19.41828,-99.15567,1.0,2,65.0
157,3000000,"14157 Querétaro, Roma Norte",19.41534,-99.15821,2.0,2,30.0
158,4900000,"13556 Colima, Roma Norte",19.41943,-99.16253,2.0,2,98.0
159,3269750,"D1354 - Coahuila, Roma Norte",19.41239,-99.15623,1.0,1,41.0
161,7999999,"Departamento en Venta en Col. Roma, CDMX",19.41952,-99.16254,2.0,2,
162,728614,EXCELENTE DEPARTAMENTO UBICADO EN ROMA NORTE GRAN REMATE BANCARIO,19.41936,-99.17431,2.0,3,180.0
164,728614,REMATO HERMOSO DEPARTAMENTO EN ROMA SUR CUAUHTEMOC,19.41936,-99.17431,2.0,3,180.0
165,4976000,"Venta de Departamento en Roma Norte, Cuauhtémoc con 1 recámara, ID: 41188",19.42064,-99.17022,1.0,1,52.0
167,3269750,"EXCLUSIVA PRE-VENTA A UNOS METROS DE LA ZONA DE HOSPITALES, COL. ROMA NORTE.",19.41247,-99.15622,1.0,1,41.0
168,3135000,"EXCLUSIVOS LOFT EN PRE-VENTA EN LA ROMA NORTE, LA MEJOR UBICACION DEL MERCADO.",19.42157,-99.16387,1.0,1,38.0
169,3922000,"ULTIMOS DOS LOFT EN PRE-VENTA, FRENTE A LA GLORIETA DE LAS CIBELES.",19.42012,-99.16699,1.0,1,37.0
170,13000000,"Departamento Calle Chihuahua, Col. Roma Norte",19.41751,-99.15959,2.0,2,
176,660884,EXCELENTE DEPARTAMENTO  UBICADO EN  MEDELLIN 14 ROMA CUAUHTEMOC CDMX     REMATE BANCARIO,19.42207,-99.16695,2.0,3,120.0
179,10281600,"VENTA DEPARTAMENTO NUEVO,  ROMA NORTE COLIMA 49",19.42088,-99.15575,2.0,2,
181,3000000,ICON ROMA Departamentos A una cuadra de Glorieta de los Insurgentes y Universidad de las Americas...,19.41952,-99.16254,1.0,1,39.0
183,10592361,"VENTA DEPARTAMENTOS NUEVO,  ROMA NORTE COLIMA 49",19.42088,-99.15575,2.0,3,168.0
187,9900000,Departamento en venta 3 recamaras Roma nuevo,19.41897,-99.16346,2.0,3,
188,3300000,"Jalapa  Col. Roma Norte, Alcaldía Cuauhtémoc",19.41851,-99.16134,2.0,3,137.0
190,2300000,"Coahuila Col. Roma Norte, Alcaldía Cuauhtémoc,",19.41163,-99.16102,2.0,2,90.0
191,2700000,"Medellín 0, Col. Roma Norte,  Cuauhtémoc",19.41142,-99.1643,2.0,2,56.0
192,1600000,"Av. Chapultepec Torre C, Col. Roma Norte, Cuauhtémoc, Ciudad de México.",19.42454,-99.15832,2.0,2,70.0
193,3490000,"COZUMEL, COLONIA ROMA, Depa de buen valor al mejor precio",19.41759,-99.17227,2.0,2,
194,6500000,DEPARTAMENTO EN  ROMA NORTE,19.41952,-99.16254,2.0,2,
203,6853000,"Venta de Departamento en Roma Norte, Cuauhtémoc con 2 recámaras, ID: 56560",19.41239,-99.15623,2.0,2,132.0
204,5060000,"Venta de Departamento en Roma Norte, Cuauhtémoc con 2 recámaras, ID: 56558",19.41239,-99.15623,2.0,2,76.0
205,8000000,"Venta de Departamento en Roma Norte, Cuauhtémoc con 2 recámaras, ID: 57072",19.4143,-99.15805,3.0,2,202.0
206,5700000,DEPARTAMENTO EN VENTA ROMA NORTE,19.4202,-99.1684,2.0,2,109.0
207,10750000,"Garden House en venta, terraza, Col Roma Norte",19.41565,-99.16493,3.0,3,
209,5463500,VENTA DEPARTAMENTO PARA ESTRENAR EN LA COLONIA ROMA,19.41534,-99.15821,2.0,2,
210,5900000,VENTA DEPARTAMENTO EN LA COLONIA ROMA,19.42215,-99.16036,2.0,2,
211,6795000,DEPARTAMENTO PARA ESTRENAR EN LA COLONIA ROMA,19.41294,-99.16158,1.0,1,
213,14700000,PH en Venta Roma Norte Cuauhtémoc,19.42028,-99.17046,3.0,3,
214,14700000,"Venta PH ,Zacatecas Roma Norte, Cuauhtemoc",19.41624,-99.1573,3.0,3,
215,6680000,"En Planta Baja, Hermoso Departamento Con Amplia Terraza en Roma Norte",19.41898,-99.15881,2.0,2,128.0
216,13000000,VERACRUZ CONDESA,19.41801,-99.17481,3.0,3,
217,628000,BONITO DEPTO EN ROMA NORTE REMATE BANCARIO,19.42074,-99.16538,2.0,3,100.0
218,6600000,"Venta de Departamento en Roma Norte, Cuauhtémoc con 2 recámaras, ID: 56559",19.41239,-99.15623,2.0,2,126.0
219,4496000,"Venta de Departamento en Roma Norte, Cuauhtémoc con 1 recámara, ID: 56589",19.42186,-99.16364,1.0,1,56.0
220,4378000,"Venta de Departamento en Roma Norte, Cuauhtémoc con 2 recámaras, ID: 56557",19.41239,-99.15623,2.0,2,65.0
226,4650000,"Venta de Departamento en Roma Norte, Cuauhtémoc con 1 recámara, ID: 56591",19.42008,-99.16704,1.0,1,43.0
227,5197500,"Venta de Departamento en Roma Norte, Cuauhtémoc con 1 recámara, ID: 56590",19.42186,-99.16364,1.0,1,63.0
228,4389000,"Venta de Departamento en Roma Norte, Cuauhtémoc con 2 recámaras, ID: 56556",19.41239,-99.15623,2.0,2,63.0
229,8200000,"Venta de Departamento en Roma Norte, Cuauhtémoc con 3 recámaras, ID: 49920",19.41367,-99.16546,3.0,3,141.0
230,8250000,"Venta de Departamento en Roma Norte, Cuauhtémoc con 2 recámaras, ID: 41507",19.42107,-99.15579,2.0,2,167.0
231,9305538,"Venta de Departamento en Roma Norte, Cuauhtémoc con 3 recámaras, ID: 41505",19.42107,-99.15579,2.0,3,145.0
232,10048500,"Venta de Departamento en Tesorería del Distrito Federal con 3 recámaras, ID: 41506",19.42107,-99.15579,2.0,3,162.0
233,5093000,"Venta de Departamento en Roma Norte, Cuauhtémoc con 1 recámara, ID: 41190",19.42064,-99.17022,1.0,1,58.0
234,5426000,"Venta de Departamento en Roma Norte, Cuauhtémoc con 1 recámara, ID: 41189",19.42064,-99.17022,1.0,1,91.0
235,7639585,"Venta de Departamento en Roma Norte, Cuauhtémoc con 2 recámaras, ID: 41075",19.41612,-99.16159,2.0,2,122.0
236,12203137,"Venta de Departamento en Roma Norte, Cuauhtémoc con 2 recámaras, ID: 41076",19.41612,-99.16159,2.0,2,208.0
237,12839444,"Venta de Departamento en Roma Norte, Cuauhtémoc con 3 recámaras, ID: 41077",19.41612,-99.16159,2.0,3,208.0
238,7425000,"Venta de Departamento en Roma Norte, Cuauhtémoc con 2 recámaras, ID: 56344",19.42059,-99.17513,2.0,2,146.0
239,5600000,"Venta de Departamento en Roma Norte, Cuauhtémoc con 2 recámaras, ID: 56425",19.4143,-99.15805,2.0,2,97.0
240,5000000,"Venta de Departamento en Roma Norte, Cuauhtémoc con 4 recámaras, ID: 44859",19.42001,-99.15549,2.0,4,192.0
241,7500000,"Venta de Departamento en Roma Norte, Cuauhtémoc con 3 recámaras, ID: 36895",19.41308,-99.16345,2.0,3,179.0
244,7597110,"Departamento en Venta, Roma Norte , Coahuila (602)",19.41783,-99.15438,2.0,2,
245,4134720,"Departamento en Venta, Roma Norte, Coahuila (303)",19.41783,-99.15438,2.0,2,
248,728614,HERMOSO DEPTO EN CUAUHTEMOC REMATE BANCARIO,19.4204,-99.17452,3.0,3,180.0
249,6853000,Departamento en venta con terraza o jardín Coahuila Roma Norte Cuauhtémoc Cdmx,19.41247,-99.15622,2.0,2,
250,7390000,"15016 Puebla, Roma Norte",19.42138,-99.16901,2.0,2,107.0
251,5625000,"15029 Puebla, Roma Norte",19.42138,-99.16901,2.0,2,74.0
252,13500000,"15012 Plaza Río de Janeiro, Roma Norte",19.42119,-99.16115,2.0,3,208.0
253,6214800,"14005 Frontera, Roma Norte",19.418,-99.15571,2.0,2,103.0
254,8500000,"14483 Calle Salamanca, Roma Norte",19.41987,-99.1695,2.0,2,89.0
255,6795000,"14148 Tonalá, Roma Norte",19.41304,-99.1615,1.0,1,116.0
256,8398000,"14657 Zacatecas, Roma Norte",19.41589,-99.1594,2.0,2,161.0
257,10513880,"14758 Zacatecas, Roma Norte",19.41555,-99.16159,2.0,3,202.0
258,8165300,"14145 Querétaro, Roma Norte",19.4149,-99.16088,2.0,3,114.0
259,5800000,"14134 - Querétaro, Roma Norte",19.41534,-99.15821,2.0,2,77.0
260,6500000,"14323 Valladolid, Roma Norte",19.42028,-99.168,2.0,3,109.0
261,5800000,"14345 Calle Querétaro, Roma Norte",19.41501,-99.15989,2.0,2,79.0
262,4980000,"13944 Frontera, Roma Norte",19.418,-99.15571,2.0,2,83.0
263,5395000,"12786 - Frontera, Roma norte",19.418,-99.15561,2.0,2,80.0
264,5400000,"D1279 - Guanajuato, Roma Norte",19.41612,-99.16159,2.0,2,83.0
265,5700000,"12645 Av. Chapultepec, Roma Norte",19.42455,-99.15833,2.0,2,68.0
266,5200000,"12480 Colima, Roma Norte",19.41943,-99.16253,2.0,2,90.0
267,9590000,"12145 Guanajuato, Roma Norte",19.41637,-99.16095,2.0,2,122.0
270,9350000,"12146 Guanajuato, Roma Norte",19.41637,-99.16095,2.0,2,117.0
271,5514000,"12157 Av. Insurgentes Sur, Roma Norte",19.42186,-99.16364,1.0,1,63.0
272,5180000,"12223 Tabasco, Roma Norte",19.41764,-99.16664,2.0,2,102.0
273,5200000,"12056 Av. Cuauhtémoc, Roma Norte",19.41713,-99.15454,2.0,2,117.0
274,9300000,"12151 San Luis Potosí, Roma Norte",19.41458,-99.15668,3.0,2,125.0
275,3950000,"11402 Frontera, Roma Norte",19.41704,-99.15546,1.0,1,33.0
276,6500000,"11201 Querétaro, Roma Norte",19.416,-99.15497,2.0,3,177.0
277,6500000,"10860 Córdoba, Roma Norte",19.4205,-99.15878,2.0,2,128.0
278,5985000,"10876 Puebla, Roma Norte",19.4204,-99.17167,2.0,2,113.0
279,5200000,"10775 Eje 2A Sur, Roma Norte",19.41375,-99.1609,2.0,2,90.0
280,4850000,"10482 Morelia, Roma Norte",19.4228,-99.15614,2.0,3,91.0
281,6900000,"10405 Colima, Roma Norte",19.4179,-99.17007,2.0,3,110.0
282,14700000,"10255 Zacatecas, Roma Norte",19.41591,-99.15765,3.0,3,284.0
283,4400000,"9971 Frontera, Roma Norte",19.4226,-99.15661,2.0,2,93.0
284,5950000,"9834 Puebla, Roma Norte",19.42412,-99.15535,2.0,3,93.0
285,3848548,"D1075 - Durango, Roma Norte",19.42008,-99.16704,1.0,1,37.0
286,8500000,"9708 Cordoba, Roma Norte",19.42214,-99.15908,2.0,2,140.0
287,5956000,"9577 Puebla, Roma Norte",19.4224,-99.16488,2.0,3,93.0
288,7600000,"9684 Jalapa, Roma Norte",19.41453,-99.16038,2.0,3,114.0
289,2752944,"D1030 - Av. Chapultepec, Roma Norte",19.42194,-99.16916,1.0,1,29.0
292,4750000,"8011 Coahuila, Roma Sur",19.41127,-99.16336,2.0,2,87.0
293,7600000,"7991 Av. Querétaro, Roma Norte",19.41464,-99.16047,2.0,3,114.0
294,4296669,"D977 - San Luis Potosí, Roma Norte",19.41375,-99.161,1.0,1,53.0
295,9789570,"D971 - Guanajuato, Roma Norte",19.41596,-99.1632,3.0,3,143.0
296,3500000,"6559 Chihuahua, Roma Norte",19.41858,-99.15489,1.0,2,65.0
297,4000000,"6377 Av. Chapultepec, Roma Norte",19.42454,-99.15832,2.0,2,65.0
298,13400000,"5605 Zacatecas, Roma Norte",19.41555,-99.16159,3.0,3,184.0
299,3200000,"5602 Cordoba, Roma Norte",19.4128,-99.15726,1.0,1,50.0
300,5700000,"5275 Colima, Roma Norte",19.41929,-99.16358,2.0,2,90.0
301,9300000,"5423 San Luis Potosí, Roma Norte",19.41459,-99.15666,3.0,3,125.0
302,10100000,"5408 Colima, Roma Norte",19.42107,-99.15579,2.0,3,162.0
303,6100000,"3989 Guanajuato, Roma Norte",19.416,-99.16376,2.0,2,90.0
304,4495000,"5049 Córdoba, Roma Norte",19.41476,-99.15782,2.0,3,86.0
305,4750000,4855 Zacatecas 3,19.41704,-99.15462,2.0,1,70.0
306,4290000,"4677 - Álvaro Obregón, Roma Norte",19.41785,-99.16021,1.0,2,90.0
307,9000000,"4064 Tabasco, Roma Norte",19.41807,-99.16533,2.0,2,110.0
308,4875000,"3929 Puebla, Roma Norte",19.42185,-99.16588,1.0,2,110.0
309,6700000,"3623 Yucatán, Roma Norte",19.41453,-99.16394,2.0,3,115.0
310,6820000,"D649 - Sinaloa, Roma Norte",19.42011,-99.17019,2.0,2,103.0
314,7000000,"3541 Av. Chapultepec, Roma Norte",19.42345,-99.16191,2.0,3,213.0
315,8200000,"3471 Frontera, Roma Norte",19.42453,-99.15737,2.0,2,129.0
316,4500000,"3386 Av. Chapultepec, Roma Norte",19.42398,-99.16097,2.0,2,89.0
317,4690000,"3320 Coahuila, Roma Norte",19.41093,-99.16546,1.0,1,70.0
318,2550000,"3229 Av. Insurgentes Sur, Roma Norte",19.42011,-99.16375,1.0,1,47.0
319,8900000,"3260 Colima, Roma Norte",19.41742,-99.17195,2.0,3,245.0
320,5654405,"D537 - Córdoba, Roma Norte",19.41266,-99.15713,1.0,1,58.0
321,4592835,"D543 - Coahuila, Roma Norte",19.41092,-99.16518,2.0,2,74.0
322,7900000,"2949 - Coahuila, Roma Norte",19.41266,-99.15781,2.0,2,168.0
350,5400000,DEPARTAMENTO EN ROMA NORTE CERCA REFORMA,19.42122,-99.17272,2.0,3,
351,4490000,"Departamento en venta en Cuauhtémoc, CDMX",19.4228,-99.15614,2.0,3,
361,1470000,REMATO DEPTO EN LA COL ROMA CUAUHTEMOC,19.41821,-99.15546,1.0,2,70.0
362,3147772,"Departamento en Córdoba, Roma Norte Cuauhtémoc",19.4128,-99.15726,1.0,1,
365,8200000,"Excelente Depa en Venta en Acapulco, Roma Norte",19.41896,-99.17377,2.0,2,130.0
386,2890000,DEPARTAMENTO ICON ROMA,19.41952,-99.16254,1.0,1,
387,3304550,ÚNICO ROMA,19.41952,-99.16254,1.0,1,
388,8250000,BLENDHAUS - Anuncio publicado por NEW GENERATION OF REAL ESTATE,19.41952,-99.16254,2.0,2,
391,2990000,DEPARTAMENTO 2 RECAMARAS EN VENTA,19.42201,-99.16702,2.0,2,
392,3950000,DEPARTAMENTO 3 RECAMARAS EN VENTA,19.42186,-99.16879,2.0,3,
394,4495000,VENTA DE DEPARTAMENTO EN LA COL ROMA NORTE CUAUHTEMOC CDMX,19.41479,-99.15771,2.0,3,86.0
396,3595000,DEPARTAMENTO EN VENTA CALLE FRONTERA ROMA NORTE,19.41843,-99.15581,1.0,1,
397,3395000,DEPARTAMENTO 1 REC EN VENTA CALLE  FRONTERA  COL ROMA NORTE ALC CUAUHTEMOC CP 06700,19.41843,-99.15581,1.0,1,58.0
403,3950000,Nuevo Hermoso y Bonito Departamento 1 Recamara Roma Norte,19.4166,-99.15471,1.0,1,
404,5950000,Magnifico Departamento a Media Cuadra del Parque España,19.4168,-99.17082,2.0,3,138.0
405,13170500,Venta de PH en Roma Norte Cuauhtémoc,19.41538,-99.16197,2.0,2,
406,5800000,"Departamento en venta, Roma",19.41652,-99.16563,2.0,2,
407,2550000,DEPARTAMENTO 3 RECAMARAS EN VENTA,19.41139,-99.16559,1.0,3,
408,5600000,DEPARTAMENTO EN VENTA VALLADOLID ROMA NORTE!!,19.4202,-99.16837,2.0,3,
409,6620120,VENTA DE DEPARTAMENTOS ROMA NORTE ENTREGA INMEDIATA!!,19.41469,-99.16062,2.0,2,
410,6400000,"VENTA DE DEPARTAMENTO EN QUERETARO, ROMA NORTE, ENTREGA 2022",19.4142,-99.16228,2.0,2,
411,5200000,VENTA DEPARTAMENTO EN ROMA NORTE,19.423,-99.16146,2.0,2,
412,6732700,Últimos Deptos en Preventa en Roma Norte,19.41969,-99.15603,2.0,2,
413,2680000,DEPARTAMENTO 1 RECAMARAS EN VENTA,19.42245,-99.15832,1.0,1,
414,6250000,"Penthouses en Venta en Tapachula, Roma Norte, Cuauhtémoc, CDMX.",19.41216,-99.16207,4.0,4,
420,9200000,Departamento en Roma Norte,19.41815,-99.1652,2.0,2,117.0
421,6200000,"Vendo Departamento en la Roma $6,200,000",19.42119,-99.17203,2.0,3,
425,2400000,DEPARTAMENTO 1 RECAMARAS EN VENTA,19.42256,-99.16381,1.0,1,
426,4900000,DEPARTAMENTO 3 RECAMARAS EN VENTA,19.41673,-99.15689,2.0,3,
428,6850000,Departamento en venta Querétaro Roma Norte,19.41815,-99.1652,1.0,1,112.0
429,8250000,Desarrollo con inmejorable ubicación muy cerca del parque Pushkin,19.42107,-99.15579,2.0,2,
430,3150000,Av. Cuauhtémoc Roma Norte,19.42308,-99.15411,1.0,1,43.0
432,9450000,Venta Departamento Duplex con Roofgarden propio  Roma Norte,19.41845,-99.15754,2.0,2,168.0
437,6000000,DEPARTAMENTO PENTHOUSE EN VENTA EN ROMA NORTE,19.4116,-99.16451,3.0,4,
438,4187000,Exclusivo departamento para familias chicas en Roma Norte Condesa Zona Rosa Cuahutemoc,19.42114,-99.1633,2.0,2,65.0
440,2800000,DEPARTAMENTO 2 RECAMARAS EN VENTA,19.42087,-99.17046,1.0,2,
441,5200000,Departamento en Venta en la Roma norte super ubicado,19.41952,-99.16254,2.0,2,
442,728999,Bonito Y Amplio Departamento en Roma Norte REMATE BANCARIO,19.41936,-99.17431,2.0,3,180.0
443,9590000,Penthouse en la Colonia Roma 204 mts,19.41565,-99.16493,2.0,2,
446,5800000,Departamento exterior en el corazón de la Roma Norte,19.41592,-99.16559,2.0,2,
447,9350000,"Pent-House  en Preventa, Calle Guanajuato, Col. Roma Norte",19.41682,-99.15964,2.0,2,
448,10050000,PH EN VENTA EN ROMA NORTE,19.41682,-99.15964,2.0,2,
450,9550000,"Departamento Calle Zacatecas, Col. Roma Norte",19.41584,-99.15967,2.0,2,
452,11670000,"Departamento en Calle Zacatecas, Col. Roma Norte",19.41584,-99.15967,2.0,3,
453,728699,"HERMOSO DEPARTAMENTO EN LA ROMA, CUAUHTEMOC EN REMATE BANCARIO",19.41936,-99.17431,2.0,3,180.0
454,660899,LINDO DEPARTAMENTO EN LA ROMA EN REMATE BANCARIO,19.42207,-99.16695,2.0,3,120.0
455,7264180,"Departamento en venta, Roma Norte, Coahuila (603-S)",19.41736,-99.15945,2.0,2,
456,3465935,"Departamento en Venta, Roma Norte, Coahuila, (301-M)",19.41736,-99.15945,1.0,1,
457,6843000,PREVENTA. HERMOSOS DEPARTAMENTOS PARA ESTRENAR EN ROMA NORTE,19.4134,-99.15668,2.0,2,
458,4495000,"CÓRDOBA 185, ROMA NORTE, CDMX",19.41952,-99.16254,2.0,3,
459,3595000,DEPARTAMENTO ROMA NORTE EN VENTA,19.41952,-99.16254,1.0,1,
470,5950000,Magnifico departamento en PB construido en 2 niveles frente al PARQUE ESPAÑA,19.41699,-99.17101,2.0,3,
471,4500000,"RAV10254, ROMA NORTE, DEPARTAMENTO EN VENTA",19.41615,-99.15756,2.0,2,
473,660998,AMPLIO DEPARTAMENTO EN LA ROMA CUAUHTEMOC REMATE BANCARIO,19.41633,-99.16552,2.0,3,120.0
474,728888,LINDO Y AMPLIO DEPTO EN LA ROMA NORTE REMATE BANCARIO,19.41936,-99.17431,2.0,3,180.0
476,660999,Bonito y Espacioso Departamento en la Roma REMATE BANCARIO,19.42207,-99.16695,2.0,3,120.0
477,829999,Lindo Departamento en Roma Nte REMATE BANCARIO,19.41661,-99.16002,2.0,3,110.0
478,829699,BELLO DEPARTAMENTO EN LA ROMA EN REMATE BANCARIO,19.41661,-99.16002,2.0,3,110.0
479,660884,LINDO DEPARTAMENTO EN MIGUEL HIDALGO,19.42207,-99.16695,2.0,3,120.0
480,7000000,Se Vende,19.41815,-99.1652,2.0,3,
482,5436000,"Departamento en Venta , Roma Norte, Cordoba (502)",19.41736,-99.15945,2.0,2,
483,4774000,"Departamento en Venta, Roma Norte ,Cordoba (101)",19.41736,-99.15945,1.0,2,
484,5190000,"Departamento en Venta Ubicado en Colonia juárez, Cuauhtémoc, CDMX.",19.42566,-99.15458,2.0,3,93.0
490,3275000,DEPARTAMENTO EN PRE VENTA ROMA NORTE,19.41484,-99.16024,1.0,1,
492,5200000,Precioso Departamento en la Roma,19.41815,-99.1652,1.0,2,92.0
494,948631,ATRACTIVO DEPARTAMENTO EN COL ROMA REMATE,19.42193,-99.15585,2.0,3,110.0
495,829653,REMATO DEPARTAMENTO EN ROMA NORTE,19.41661,-99.16002,2.0,3,110.0
496,728614,REMATO DEPARTAMENTO EN COL ROMA NORTE,19.41936,-99.17431,2.0,3,180.0
497,728614,Hermoso Departamento en Roma Norte REMATE BANCARIO,19.41936,-99.17431,2.0,3,180.0
498,660884,Bonito Departamento en Roma REMATE BANCARIO,19.42207,-99.16695,2.0,3,120.0
501,10872225,Venta Depto. 3 Habs. con terraza en Roma Norte,19.41469,-99.16062,3.0,3,
502,7190820,Departamentos de 2 a 3 Habs. en Venta en Colonia Roma Norte,19.41469,-99.16062,2.0,3,
503,19404000,Penthouse 3 Habs. en venta en La Roma Norte,19.41469,-99.16062,3.0,3,
507,5500000,Departamento en venta Colonia Roma,19.41652,-99.16563,2.0,2,107.0
517,4300000,VENTA DEPARTAMENTO ROMA NORTE,19.41645,-99.15816,2.0,2,
518,8650000,VENTA DEPARTAMENTO  ROMA SUR,19.41751,-99.17019,2.0,2,
519,5950000,VENTA DEPARTAMENTO ROMA NORTE,19.42149,-99.16557,2.0,3,
520,3500000,Invierte en Loft 37 m² en la Roma!,19.42141,-99.16414,1.0,1,
521,2900001,Loft 38 m² en la Colonia Roma! Gimnasio y Coworking. Preventa,19.42193,-99.16361,1.0,1,
522,3156000,Preventa Loft 38 m² en la Colonia Roma! Oportunidad de Inversión!,19.42186,-99.16363,1.0,1,
523,3170002,Loft 42m2 en la Colonia Roma. Acabados de Lujo,19.42207,-99.16486,1.0,1,
524,3170000,Preventa Loft 38 m² en la Colonia Roma! Gimnasio y Coworking incluido!,19.42207,-99.16355,1.0,1,
525,3010000,"Preventa Departamento 47m2, tipo Loft en la Roma con estacionamiento!",19.42218,-99.16503,1.0,1,
526,3170001,Preventa Loft 42m2 en la Roma. a 5 min del Parque México,19.42218,-99.16474,1.0,1,
527,3170001,Preventa Loft 42m2 a 5 min del Parque España,19.42215,-99.16506,1.0,1,
528,3348050,"Preventa Depa 47m2 tipo Loft en la Roma, 1 estacionamiento!",19.42206,-99.1656,1.0,1,
529,3470001,Invierte en Loft 37 m² en la Roma! Gran Oportunidad de Inversión.,19.42125,-99.16464,1.0,1,
530,10750000,Preventa Garden House 195m2 en la Roma con gran Terraza,19.41626,-99.16179,2.0,3,
531,9590010,Preventa Depa ROOF GARDEN en Roma Norte 2 habitaciones,19.41658,-99.16141,2.0,2,
534,9590000,"Preventa 204m2, 2 recámaras cerca Parque Luis Cabrera",19.41687,-99.15977,2.0,2,
535,4980000,"Preventa Depa 76m2, 2 Recamara, 2 Baños y 1 Cajon de Estacionamiento",19.41232,-99.15787,2.0,2,
536,4200000,DEPARTAMENTO 1 RECAMARAS EN VENTA,19.41692,-99.1546,1.0,1,
537,5400000,DEPARTAMENTO 3 RECAMARAS EN VENTA,19.42039,-99.16164,2.0,3,
538,2700000,DEPARTAMENTO 1 RECAMARAS EN VENTA,19.41703,-99.15542,1.0,1,
539,2700000,DEPARTAMENTO 3 RECAMARAS EN VENTA,19.4251,-99.15564,1.0,3,
540,2657000,DEPARTAMENTO EN VENTA JALPA 99A CUAUHTEMOC,19.41856,-99.16135,1.0,2,
541,728614,GRAN REMATE BANCARIO DEPARTAMENTO ROMA NORTE,19.42043,-99.17454,2.0,3,180.0
542,829653,OJO MUY BONITO DEPARTAMENTO EN ROMA NORTE REMATE,19.41661,-99.16002,2.0,3,110.0
543,660884,COMODO DEPARTAMENTO EN CUAUHTEMOC,19.42207,-99.16695,2.0,3,120.0
544,4700000,DEPARTAMENTO 2 RECAMARAS EN VENTA,19.4207,-99.17055,2.0,2,
545,5950000,"INCREIBLE DEPARTAMENTO EN LA MEJOR ZONA DE LA COLONIA ROMA NORTE, VENTA/RENTA!!",19.42194,-99.16892,2.0,2,
548,9900000,"Pent-House en VENTA, Roma Sur",19.4208,-99.1615,2.0,3,
549,729000,BONITO DEPTO EN LA ROMA NORTE REMATE BANCARIO,19.41936,-99.17431,2.0,3,180.0
550,949000,BONITO DEPTO EN LA ROMA NORTE REMATE BANCARIO,19.42193,-99.15585,2.0,3,110.0
551,950000,HERMOSO DEPTO EN LA ROMA NORTE REMATE BANCARIO,19.42072,-99.16534,2.0,3,176.0
552,786000,LINDO DEPTO EN LA ROMA NORTE REMATE BANCARIO,19.42399,-99.15701,2.0,3,100.0
559,5400000,Venta de Departamento,19.4143,-99.1581,2.0,2,79.0
570,7932730,Departamento - Cuauhtemoc,19.41469,-99.16062,2.0,2,
571,8200000,Departamento - Roma,19.41969,-99.15603,2.0,2,
573,4231935,ROMA NORTE DEPARTAMENTO EN VENTA,19.41375,-99.161,2.0,2,
574,5500000,"ROMA NORTE, PROYECTO DEL ARQ. ANTONIO FARRÉ, MURAL DE MARCO ZAMUDIO",19.41175,-99.16497,1.0,1,
575,12660000,"ROMA NORTE, INCREÍBLE CONDOMINIO HORIZONTAL SOLO 3 TOWN HOUSE",19.41946,-99.15813,2.0,2,
580,4387165,"Venta de Departamentos en Roma Norte, Cuauhtemoc",19.42143,-99.17041,1.0,1,
582,9200000,Departamento en Venta Col Roma Norte,19.41807,-99.16533,2.0,2,
583,2753666,ULTIMOS REMATES &#34;CUAUHTEMOC&#34; DEPARTAMENTO EN VENTA,19.41142,-99.1643,1.0,2,65.0
585,5400000,Excelente PH en venta en la colonia Roma Norte,19.4212,-99.17272,2.0,3,110.0
590,7690640,Departamento PENT HOUSE Nuevo en Venta en Colonia ROMA,19.42064,-99.17054,2.0,2,
591,9350000,"PH EN VENTA, ROMA NORTE.",19.41682,-99.15964,2.0,2,
592,9789570,"Departamento en Venta, Roma Norte, Guanajuato (202)",19.41736,-99.15945,3.0,3,
600,8250000,"Departamento en venta en Roma Norte, Cuauhtémoc, Distrito Federal",19.42107,-99.15579,2.0,2,
602,5400000,ROMA NORTE PUEBLA,19.4219986055992,-99.1650242,2.0,2,
603,15900000,Departamento en VENTA en Roma Norte,19.41555,-99.16159,3.0,3,90.0
604,4500000,DEPARTAMENTO 2 RECAMARAS EN VENTA,19.41435,-99.15808,2.0,2,
605,2999990,Venta de Departamento en la Roma,19.41601,-99.15644,1.0,2,
606,3000000,Venta de Departamento Roma,19.41913,-99.15751,1.0,2,92.0
607,7250000,DEPARTAMENTO EN VENTA EN CONDESA.,19.41731,-99.17194,2.0,2,138.0
608,5750000,VENTA DEPARTAMENTO AMUEBLADO EN ROMA NORTE,19.41986,-99.17187,2.0,2,69.0
610,3995005,Departamento  en venta en Roma Norte,19.41426,-99.16329,2.0,2,85.0
611,3995005,Departamento en Venta Cuauhtémoc,19.41461,-99.16392,2.0,2,85.0
612,3995005,Departamento en Venta en Roma Norte Cuauhtémoc,19.41426,-99.16329,2.0,2,85.0
613,3585951,Venta de departamentos en Roma Norte Cuauhtemoc,19.41924,-99.16957,1.0,1,44.0
614,3200000,Departamento en Venta en la Condesa,19.42,-99.17,1.0,1,46.0
615,1382000,BONITO DEPARTAMENTO EN ROMA NORTE EN REMATE,19.41821,-99.15546,2.0,2,95.0
616,974000,REMATO DEPARTAMENTO FRENTE A PABELLON CUAUHTEMOC,19.41262,-99.15546,1.0,2,80.0
618,7096919,DEPARTAMENTO 2 RECAMARAS EN VENTA,19.42019,-99.17031,2.0,2,
619,6930000,DEPARTAMENTO 2 RECAMARAS EN VENTA,19.42021,-99.17021,2.0,2,
622,6820000,DEPARTAMENTO 2 RECAMARAS EN VENTA,19.42026,-99.17031,2.0,2,
624,3300000,DEPARTAMENTO 3 RECAMARAS EN VENTA,19.42333,-99.1554,1.0,3,
627,13170500,PH EN VENTA COL. ROMA,19.41538,-99.16197,2.0,2,
629,14382000,GARDEN HOUSE VENTA COL. ROMA,19.41952,-99.16254,3.0,3,
631,840000,ULTIMO DEPTO EN REMATE EN LA ROMA,19.41661,-99.16002,1.0,2,85.0
635,4100000,Sinaloa Roma Norte,19.41988,-99.17201,1.0,1,
636,800000,Departamento en La Condesa,19.41801,-99.17481,3.0,2,
637,5752000,Departamento en La Colonia Roma en Venta,19.4119,-99.15965,2.0,2,
638,10750000,Departamento en Venta en La Roma,19.41682,-99.15964,3.0,3,
639,3500000,Departamento en La Colonia Roma,19.41095,-99.16604,1.0,1,
640,2793102,"Preventa en La Colonia Roma Norte, Chapultepec",19.42295,-99.16525,,6,
641,23000000,PH Para Venta  en Plaza Río de Janeiro Roma Norte,19.42099,-99.16092,3.0,3,
644,12900000,Hermoso Departamento en Venta en El Corazón de Roma Norte!,19.41884,-99.16133,2.0,2,
645,5800000,Muy Buen Departamento en Venta  en Col. Roma Norte,19.41899,-99.16402,2.0,2,
647,9900000,Río Ebro Cuauhtémoc,19.41673,-99.16238,2.0,2,
648,4495000,Departamento  en Venta en la ROMA,19.41584,-99.15967,2.0,3,
651,2400000,DEPARTAMENTO EN PREVENTA ROMA NORTE 1 RECAMARA,19.42194,-99.16917,1.0,1,
653,9000000,DEPARTAMENTO ROMA NORTE,19.41815,-99.1652,2.0,3,220.0
655,4495000,Departamento en Venta en la ROMA,19.41816,-99.15845,2.0,3,
658,3325922,"Departamento en Venta, Roma Norte, Av. Insurgentes (717)",19.41748,-99.16455,1.0,1,
659,10549350,"Departamento en Venta, Roma Norte, Guanajuato (101)",19.41736,-99.15945,3.0,3,
660,5514028,"Departamento en Venta, Roma Norte, Av. Insurgentes (706)",19.41748,-99.16455,1.0,1,
661,4419100,"Departamento en Venta, Roma Sur, Coahuila (405)",19.41736,-99.15945,2.0,2,
662,8026360,"Departamento en Venta, Roma Sur, Coahuila (601)",19.41736,-99.15945,2.0,2,
663,4548143,"Departamento en Venta, Roma Norte ,Av. Insurgentes (615)",19.41748,-99.16455,1.0,1,
667,1842000,"Departamento en Jalapa, Roma Norte, Cuauhtémoc, Ciudad de México",19.41851,-99.16134,1.0,2,145.0
668,3425000,"Departamento en Venta en Roma Norte, Cuahutemoc",19.42156,-99.17041,1.0,1,
669,12900000,PH en venta  Roma Norte 3 recamaras,19.4162,-99.15729,3.0,3,
670,3900000,DEPARTAMENTO 3 RECAMARAS EN VENTA,19.42337,-99.15535,1.0,3,
672,3395000,Frontera Roma Norte,19.41842,-99.15584,1.0,1,
673,5250000,DEPARTAMENTO EN VENTA EN LA CONDESA,19.41592,-99.16369,3.0,3,
674,8000000,"Departamento en Venta en Querétaro, Roma Norte, Cuauhtémoc, Ciudad de México",19.41367,-99.16547,3.0,3,
675,2767000,DEPA ADJUDICADO EN EL CORAZON DE LA ROMA A 5 MIN DE LA GLORIETA DE INSURGENTES,19.4169628055976,-99.16075,,3,148.0
677,1165000,REMATE EN “CUAUHTEMOC” DEPARTAMENTO EN VENTA,19.42124,-99.17266,1.0,2,
678,1541886,ULTIMOS REMATES &#34;CUAUHTEMOC&#34; DEPARTAMENTO EN VENTA,19.42398,-99.16097,1.0,2,66.0
679,1893307,ULTIMOS REMATES &#34;CUAUHTEMOC&#34; DEPARTAMENTO EN VENTA,19.41126,-99.16337,1.0,2,111.0
680,693899,VENTA DE BONITO DEPTO EN REMATE EN ROMA NORTE CUAUHTEMOC,19.4165,-99.16118,1.0,2,60.0
690,5500000,Mérida Roma Norte,19.41673,-99.15696,2.0,3,85.0
691,7250000,DEPARTAMENTO 2 RECAMARAS EN VENTA,19.42063,-99.17288,2.0,2,
692,6250000,Departamento en Venta en Roma Norte,19.41216,-99.1613,4.0,3,
696,3150000,VENTA  DEPARTAMENTO EN COLONIA ROMA,19.41551,-99.1576,1.0,2,
697,4400000,"FRONTERA, VENTA DEPARTAMENTO, ROMA NORTE",19.4226,-99.15661,2.0,2,
698,4290000,"VENTA DEPARTAMENTO COL. ROMA NORTE, CONDESA",19.41785,-99.16021,1.0,2,
699,6550000,"ROMA NORTE, DEPARTAMENTO EN VENTA, PRECIOSO, EXCELENTE UBICACION",19.41682,-99.15964,,6,
700,4650000,VENTA  DEPARTAMENTO COL. ROMA NORTE,19.41449,-99.1583,2.0,2,
701,5985000,"VENTA DEPARTAMENTO COL. ROMA NORTE, CONDESA",19.4204,-99.17167,2.0,2,
703,2820000,Icon Roma,19.4219,-99.16359,1.0,1,
704,4500000,DEPARTAMENTO ROMA NORTE,19.41575,-99.15619,1.0,1,
705,3269750,Departamento en Venta “Unico Roma”,19.4119,-99.15965,1.0,1,
707,3350000,DEPARTAMENTO ROMA NORTE EN PREVENTA,19.41575,-99.15619,1.0,1,
710,3848548,Icon Cibeles! Super Oportunidad Para Inversionistas!,19.42008,-99.16704,1.0,1,
711,5000000,Departamento en Venta en Narvarte Poniente,19.41417,-99.16567,2.0,2,
712,4290000,"VENTA DEPARTAMENTO ROMA, SAN LUIS POTOSÍ",19.41433,-99.15952,2.0,2,
714,4390000,Bonito Departamento en Excelente Ubicación,19.41494,-99.15777,2.0,2,
715,13000000,"Magnifico departamento con Roof Garden privado, en el corazon de la Roma",19.41711,-99.16121,2.0,2,
716,2005000,Departamento en Venta en Roma Norte,19.42048,-99.1702,1.0,1,
720,6950000,::ROMA NORTE OPORTUNIDAD::  Increíbles precios de preventa,19.42408,-99.15982,2.0,2,
723,6550000,"ROMA NORTE, DEPARTAMENTO EN VENTA, PRECIOSO, EXCELENTE UBICACION. *INVERSIONISTA",19.41682,-99.15964,2.0,2,
724,6700000,VENTA DEPARTAMENTO NUEVO - COL. ROMA,19.41454,-99.16111,2.0,2,
727,3200000,Departamento en Venta en Roma Norte,19.4128,-99.15727,1.0,1,
728,2792170,Chapultepec 430,19.42194,-99.16917,1.0,1,
729,5950000,Chapultepec 166,19.42476,-99.15757,2.0,2,
732,9500000,Increíble Departamento,19.41952,-99.16254,2.0,2,
735,8000000,Departamento 3 recamaras Col. Roma Norte Cuauhtemoc,19.41375,-99.16547,2.0,3,
736,3998850,"Gran Preventa¡¡¡ departamento de 1 recamara, Col. Roma Norte, Cuauhtemoc, CDMX.",19.42008,-99.16704,1.0,6,
737,13000000,Penthouse en Colonia Roma de 2 recamaras.,19.41952,-99.16254,2.0,2,
738,2890000,Últimos departamentos en preventa en Roma Norte,19.41479,-99.16212,1.0,1,
739,8500000,Departamento 3 recamaras Col. Roma Norte,19.41375,-99.16547,2.0,3,
740,8200000,Departamento en Venta en Roma Norte,19.42121,-99.16443,2.0,2,
741,4210000,Departamento en Venta en Roma Norte,19.41952,-99.16255,2.0,2,
779,5500000,"Departamentos Nuevos en Venta en Col. Roma Norte, CDMX",19.41202,-99.16428,2.0,2,
780,4800000,"Departamento en venta, Col. Roma",19.4128,-99.15726,1.0,2,
784,4550000,"Venta departamento Roma $4,550,000",19.41783,-99.15438,2.0,2,
785,7000000,Departamento amueblado o sin amueblar Roma Norte,19.41952,-99.16254,1.0,1,
786,4000000,Departamento en Venta en Roma Norte,19.42345,-99.16192,1.0,2,
789,5400000,"Queretaro, Col. Roma Norte. 77m2, para estrenar, finos acabados",19.41534,-99.15821,2.0,2,
790,5751680,Departamento en Venta en Roma Norte,19.41092,-99.16517,2.0,2,
794,3848548,"rEstrene departamento, Col. Roma Norte, Cuauhtemoc",19.42126,-99.16718,1.0,1,
798,4695000,Venta departamento Av Chapultepec,19.42295,-99.16525,2.0,2,
799,4206000,Departamento en Venta en Roma Norte,19.41816,-99.15861,3.0,2,
800,4750000,Departamento en Venta en Roma Norte,19.41704,-99.15462,2.0,1,
801,3425000,Departamento en Venta en Roma Norte,19.41775,-99.16781,1.0,1,
802,3240000,Departamento en Venta en Roma Norte,19.41754,-99.15813,1.0,2,
803,599000,Departamento en Venta en Roma Norte,19.41821,-99.15546,1.0,2,
804,2128000,Departamento en Venta en Roma Norte,19.41127,-99.16337,1.0,2,80.0
805,1686000,Departamento en Venta en Roma Norte,19.41147,-99.16432,1.0,2,
806,1848000,Departamento en Venta en Roma Sur,19.41127,-99.16337,2.0,3,
807,4680000,Departamento en Venta en Roma Norte,19.42294,-99.16527,2.0,2,
810,7100000,VENTA DE HERMOSO DEPARTAMENTO - COL. ROMA,19.4119,-99.15965,1.0,2,
811,6820000,"VENTA 5 DEPARTAMENTOS - Sinaloa 145, Col. Roma",19.42011,-99.17019,2.0,2,
812,9799999,Departamento en Venta en Roma Norte,19.41633,-99.16485,4.0,3,
814,12600000,Departamento en Venta en Roma Norte,19.41736,-99.15945,4.0,3,
816,12000000,"ESPECTACULAR PENTGARDEN EN PRE-VENTA, ROMA NORTE",19.41682,-99.15964,2.0,2,
817,5200000,"Venta Divino Loft Nuevo, Colonia Roma",19.41234,-99.16279,1.0,1,
820,2645000,Departamento en Venta en Roma Norte,19.41742,-99.17195,2.0,3,
821,2670000,Departamento en Venta en Roma Norte,19.41142,-99.16431,2.0,3,
822,2075000,Departamento en Venta en Roma Norte,19.41936,-99.17432,2.0,3,
823,3350000,Departamento en Venta en Roma Norte,19.41634,-99.1606,2.0,3,
827,3800000,PRE-VENTA DEPARTAMENTOS ROMA NORTE,19.41575,-99.15619,1.0,1,
828,3860000,Único Roma - Preventa,19.4119,-99.15965,2.0,2,
833,7201838,Departamento en Venta en Roma Norte,19.42127,-99.16313,2.0,2,
835,6500000,Departamento en Venta en Roma Norte,19.42046,-99.16148,3.0,3,
838,2000000,Departamento en Venta en Roma Sur,19.4119,-99.15893,2.0,3,
843,8000000,Venta de Pent House con Roof Garden Privado Colonia Roma,19.4143,-99.15805,3.0,3,202.0
847,3950000,DEPARTAMENTO EN VENTA,19.42194,-99.16892,2.0,3,107.0
849,6200000,"Hermoso Departamento en Venta en la Condesa con Hermosas vistas, muy iluminado",19.41742,-99.17195,2.0,3,150.0
850,7200000,"Departamento en Venta en Hipódromo Condesa, 1 recámara, 3 niveles, Roof Garden",19.41689,-99.17503,1.0,1,162.0
851,14800000,DEPARTAMENTO EN EDIFICIO BASURTO COLONIA HIPODROMO CONDESA,19.41358,-99.16775,2.0,2,
852,5500000,"TORRE HAMBURGO ESQ SEVILLA, COL. JUAREZ",19.42367,-99.17039,2.0,3,
853,3900000,"Departamento en Venta, Londres Col. Juárez",19.42338,-99.16812,2.0,2,
854,15400000,DEPARTAMENTO VARSOVIA 3 CON TERRAZA ESPECTACULAR EN PLENO REFORMA,19.42582,-99.16896,2.0,3,
855,5387388,Departamento en venta Entrega Inmediata Av Chapultepec Col Juarez y llevate tu REGALO con Gala,19.42414,-99.16284,2.0,2,77.0
856,3624748,"D1393 - Av. Chapultepec, Juárez",19.42172,-99.17365,1.0,1,54.0
858,8300000,ULTIMOS DEPARTAMENTOS FRENTE AL PARQUE ESPAÑA,19.41439,-99.17082,3.0,3,143.0
859,13290000,"PRECIOSO DEPARTAMENTO CON ESPECTACULAR TERRAZA, DE DOS NIVELES",19.41456,-99.16645,2.0,2,206.0
861,7250000,EXCELENTES DEPARTAMENTOS  VENTA CUAUHTÉMOC JUÁREZ,19.42245,-99.17007,1.0,1,82.0
864,6500000,Hipodromo Condesa Moderno Departamento en Venta,19.41595,-99.16647,2.0,2,118.0
865,2447800,"Departamento en venta Juárez, Cuauhtémoc, CDMX -1 recamara, estacionamiento, cerca de Reforma",19.42353,-99.1705,1.0,1,54.0
866,3200000,"Venta de Departamento en Juárez, Cuauhtémoc con 2 recámaras, ID: 55607",19.4253,-99.16121,1.0,2,84.0
867,5000000,"14129 - Juan Escutia, Colonia Condesa",19.41421,-99.17396,2.0,2,89.0
868,5000000,"14166 Juan Escutia, Condesa",19.41421,-99.17396,2.0,2,89.0
869,10000000,Departamento en pre venta en Ámsterdam Hipódromo Cuauhtémoc,19.41121,-99.16792,2.0,2,
870,6495000,VENTA DE DEPARTAMENTO EN HIPODROMO CONDESA CUAUHTEMOC,19.4122,-99.1718,2.0,2,
872,9450000,Departamentos en Venta en Garden Condesa Ciudad de Mexico,19.4144,-99.17081,2.0,2,
873,7950000,Condesa Venta depto increible nuevo desarrollo con Roof G privado,19.41609,-99.17396,1.0,1,115.0
874,7800000,Condesa hermoso departamento en Venta,19.41142,-99.17089,2.0,2,
875,5363485,"Venta de Departamento en Roma Sur, Cuauhtémoc con 2 recámaras, ID: 60159",19.41156,-99.16055,2.0,2,89.0
876,4270200,"Venta de Departamento en Roma Sur, Cuauhtémoc con 2 recámaras, ID: 60161",19.41156,-99.16055,2.0,2,71.0
877,4303135,"Venta de Departamento en Roma Sur, Cuauhtémoc con 2 recámaras, ID: 60160",19.41156,-99.16055,2.0,2,79.0
878,6218895,"Venta de Departamento en Roma Sur, Cuauhtémoc con 2 recámaras, ID: 60163",19.41156,-99.16055,2.0,2,141.0
879,4600000,OPORTUNIDAD DE DEPARTAMENTO EN LA CONDESA,19.41187,-99.16716,1.0,2,
880,8000000,Departamento en Venta EN LA CONDESA,19.41118,-99.17229,3.0,4,190.0
883,9324000,DEPTARTAMENTO PREVENTA CONDESA,19.41317,-99.1715,2.0,2,
889,7591980,"Venta de Departamento en Roma Sur, Cuauhtémoc con 2 recámaras, ID: 60162",19.41156,-99.16055,2.0,2,172.0
890,6792390,"Venta de Departamento en Roma Sur, Cuauhtémoc con 2 recámaras, ID: 60164",19.41156,-99.16055,2.0,2,154.0
891,6330120,"Venta de Departamento en Roma Sur, Cuauhtémoc con 2 recámaras, ID: 60165",19.41156,-99.16055,2.0,2,115.0
892,6200000,"Venta de Departamento en Condesa, Cuauhtémoc con 2 recámaras, ID: 60399",19.41531,-99.17608,1.0,2,104.0
893,5550000,Departamento en Roma sur,19.41073,-99.16489,2.0,2,
894,6495000,Venta de departamento: Edificio con GYM,19.4122,-99.1718,2.0,2,112.0
895,5395100,Vive en un depa con balcón: Hermosa vista,19.4148,-99.16596,2.0,1,100.0
896,4198875,¡Vive en un lujoso Desarrollo: Departamento en Venta!,19.41144,-99.16112,2.0,2,72.0
897,3800000,Departamento en Venta en COLONIA JUAREZ,19.42555,-99.16614,1.0,3,
898,8300000,"PENTHOUSE Av. Chapultepec Col. Juárez, Alcaldía Cuauhtémoc",19.42451,-99.16069,2.0,3,95.0
899,808998,LINDO Y AMPLIO DEPARTAMENTO EN LA CONDESA REMATE BANCARIO,19.41566,-99.16908,2.0,3,120.0
900,4440632,"Departamento para estrenar en colonia Roma Sur, $4,440,632",19.41144,-99.16112,2.0,2,
901,925000,OPORTUNIDAD BONITO DEPARTAMENTO EN CUAUHTEMOC,19.4148,-99.16596,2.0,3,121.0
903,5500000,SE VENDE DEPARTAMENTO RECIÉN REMODELADO  EN LA CONDESA,19.41323,-99.17148,2.0,1,
904,9500000,Departamento en Venta en CONDESA,19.41784,-99.17634,2.0,2,
905,8231760,"Venta de Departamento en Hipódromo, Cuauhtémoc con 2 recámaras, ID: 61782",19.41257,-99.17242,2.0,2,106.0
908,6402830,"Venta de Departamento en Juárez, Cuauhtémoc con 3 recámaras, ID: 61764",19.42342,-99.16521,2.0,3,89.0
909,7139085,"Venta de Departamento en Juárez, Cuauhtémoc con 2 recámaras, ID: 61760",19.42342,-99.16521,2.0,2,131.0
910,8862780,"Venta de Departamento en Hipódromo, Cuauhtémoc con 2 recámaras, ID: 61784",19.41257,-99.17242,2.0,2,118.0
911,8086800,"Venta de Departamento en Juárez, Cuauhtémoc con 3 recámaras, ID: 61761",19.42342,-99.16521,2.0,3,131.0
912,10650597,"Venta de Departamento en Hipódromo, Cuauhtémoc con 2 recámaras, ID: 61780",19.41257,-99.17242,2.0,2,179.0
913,11506965,"Venta de Departamento en Hipódromo, Cuauhtémoc con 2 recámaras, ID: 61779",19.41257,-99.17242,2.0,2,184.0
914,5571412,"Venta de Departamento en Juárez, Cuauhtémoc con 2 recámaras, ID: 61762",19.42342,-99.16521,2.0,2,76.0
915,5987992,"Venta de Departamento en Juárez, Cuauhtémoc con 2 recámaras, ID: 61763",19.42342,-99.16521,2.0,2,83.0
916,6478146,"Venta de Departamento en Juárez, Cuauhtémoc con 3 recámaras, ID: 61765",19.42342,-99.16521,2.0,3,93.0
917,11981369,"Venta de Departamento en Hipódromo, Cuauhtémoc con 3 recámaras, ID: 61783",19.41257,-99.17242,2.0,3,175.0
918,6664232,"Venta de Departamento en Hipódromo, Cuauhtémoc con 2 recámaras, ID: 61785",19.41257,-99.17242,2.0,2,92.0
919,8950000,Departamento Condesa,19.41051,-99.17414,2.0,2,164.0
920,875000,Venta Departamento Reforma,19.42399,-99.17588,1.0,1,70.0
921,10950000,Venta Departamento Condesa,19.41642,-99.17478,2.0,2,122.0
922,5395000,Venta - Departamento - Insurgentes Sur - 100 m2 - Piso 10,19.41481,-99.16593,2.0,1,
924,5890000,"Hipódromo, Alcaldía Cuauhtémoc, Ciudad de México, CDMX",19.41088,-99.16714,2.0,2,
933,7800000,Departamento en Venta Cerca del Parque Mexico,19.41236,-99.17331,2.0,2,122.0
934,5550000,Venta - Departamento - Coahuila - 112 m2 - Piso 2,19.4109,-99.16426,2.0,2,
937,6844910,"Venta ultimo departamento; 1 o 2 recamaras. Edificio sustentable. Condesa, CDMX.",19.41531,-99.17238,1.0,2,76.0
939,19500000,Venta Departamento Colonia Condesa,19.41601,-99.17402,3.0,3,234.0
940,4635750,DEPARTAMENTO EN VENTA CON TERRAZA Y BODEGA EN REFORMA,19.42245,-99.17007,2.0,2,
941,1000000,DEPARTAMENTO EN VENTA AMUEBLADO Y EQUIPADO EN ST. REGIS,19.42569,-99.17231,1.0,1,
943,3900000,DEPARTAMENTO EN VENTA EN CONJUNTO CINE MEXICO ROMA NORTE,19.41934,-99.15396,2.0,2,83.0
944,3800000,"Keller Williams, Vende departamento de dos recamaras en Hamburgo",19.42558,-99.16578,2.0,2,92.0
945,7927395,Departamentos Venta Cuauhtémoc Hipódromo Condesa 51-DV-2332,19.41116,-99.16704,3.0,2,106.0
946,5900000,Departamentos Venta Cuauhtémoc Hipódromo Condesa 51-DV-2336,19.41116,-99.16704,2.0,2,90.0
947,4198875,"11915 Tonalá, Roma Sur",19.41145,-99.16111,2.0,2,61.0
948,3900000,"12302 Londres, Juárez",19.42331,-99.16815,2.0,2,75.0
949,4198875,VENTA Departamentos en Tonala Roma Sur,19.4115,-99.16102,2.0,2,62.0
952,3889440,Venta Departamentos En Coahuila Roma Norte,19.41162,-99.16049,2.0,2,70.0
953,4185750,"14252 Londres, Juárez",19.42244,-99.17006,1.0,1,45.0
954,8200000,Departamento nuevo a la venta en Garden Condesa (GR),19.41068,-99.17286,2.0,2,
955,6850000,Departamento en venta en Av Ámsterdam Condesa,19.4157,-99.16911,3.0,2,
956,6000000,"15160 Av. Nuevo León, Hipódromo",19.41319,-99.17141,1.0,1,80.0
957,808659,TU DEPARTAMENTO EN AMSTERDAM GRAN REMATE BANCARIO,19.41566,-99.16908,2.0,3,120.0
958,24000000,"SE VENDE EXCLUSIVO DEPARTAMENTO CON ALBERCA, EN CONDESA.",19.41439,-99.17082,4.0,3,281.0
959,10500000,AMPLÍSIMO DEPARTAMENTO EN LA CONDESA Y ESPECTACULAR VISTA AL PARQUE MEXICO,19.41418,-99.16932,2.0,3,
960,4440632,Departamentos en Tonalá Roma Sur Cuauhtémoc,19.41144,-99.16112,2.0,2,
962,6200000,Se vende departamento de lujo y vanguardia en La Condesa,19.41406,-99.17003,2.0,2,74.0
963,6481000,A una cuadra de Parque MÃ©xico en la Condesa Completamente NUEVO!,19.41116,-99.16702,2.0,3,98.0
964,6500000,DEPARTAMENTO A LA VENTA EN ZONA ROSA DE LA CDMX,19.42385,-99.1711,2.0,2,
965,4990000,"VENTA DEPARTAMENTO EN COL. JUÁREZ, CUAUHTÉMOC",19.42357,-99.16853,3.0,3,
968,6490000,"Venta de Departamento en la Colonia Condesa, Cuauhtémoc, Ciudad de México",19.41323,-99.17152,2.0,3,150.0
970,6954000,REMATO DEPARTAMENTO A 5 MIN DE LA GLORIETA DE LOS INSURGENTES,19.42451,-99.16069,1.0,2,
971,5688800,"Departamento en Venta en Hamburgo, Col. Juárez",19.42233,-99.17271,2.0,3,
974,12000000,VENTA DEPARTAMENTO EN LA COLONIA CONDESA,19.41248,-99.1733,3.0,4,
976,2448000,"Departamento en venta Juárez, Cuauhtémoc, CDMX  - 1 recamara, vigilancia, 5 minutos de Insurgentes",19.42304,-99.17082,1.0,1,
978,20000000,"DEPARTAMENTO VENTA, COL. CUAUHTÉMOC. LUJO Y ESPECTACULAR",19.42399,-99.17588,1.0,1,
979,7517000,"Departamento en venta en Londres 187, Cuauhtémoc, CDMX, 2 Recámaras",19.42397,-99.16681,2.0,2,118.0
980,9037100,"Departamento en venta en Londres 187, Cuauhtémoc, CDMX, 3 Recámaras",19.42397,-99.16681,2.0,3,127.0
985,4945900,"Departamento en venta en Londres 187, Cuauhtémoc, CDMX, 1 Recámara",19.42397,-99.16681,1.0,1,65.0
987,925000,HERMOSO DEPTO EN AV INSURGENTES REMATE BANCARIO,19.4148,-99.16596,2.0,3,121.0
988,11500000,"Venta de Departamento en Hipódromo, Cuauhtémoc con 2 recámaras, ID: 60985",19.41254,-99.17154,2.0,2,165.0
989,5550000,"Venta de Departamento en Roma Sur, Cuauhtémoc con 2 recámaras, ID: 49592",19.41073,-99.16489,2.0,2,112.0
990,6495000,"Venta de Departamento en Hipódromo, Cuauhtémoc con 2 recámaras, ID: 49580",19.4123,-99.17167,2.0,2,112.0
991,5395000,"Venta de Departamento en Hipódromo, Cuauhtémoc con 1 recámara, ID: 50042",19.4148,-99.16596,2.0,1,100.0
992,5695000,"Venta de Departamento en Camara Nacional de Aerotransportes con 2 recámaras, ID: 48832",19.42397,-99.16681,2.0,2,86.0
993,8937800,"Venta de Departamento en Camara Nacional de Aerotransportes con 3 recámaras, ID: 48844",19.42397,-99.16681,2.0,3,146.0
996,7877100,"Venta de Departamento en Camara Nacional de Aerotransportes con 3 recámaras, ID: 48845",19.42397,-99.16681,2.0,3,137.0
997,7581000,"Venta de Departamento en Camara Nacional de Aerotransportes con 3 recámaras, ID: 48843",19.42397,-99.16681,2.0,3,123.0
998,6542800,"Venta de Departamento en Camara Nacional de Aerotransportes con 2 recámaras, ID: 48828",19.42397,-99.16681,2.0,2,106.0
999,4716700,"Venta de Departamento en Camara Nacional de Aerotransportes con 2 recámaras, ID: 48831",19.42397,-99.16681,2.0,2,79.0
1000,8704100,"Venta de Departamento en Camara Nacional de Aerotransportes con 3 recámaras, ID: 48842",19.42397,-99.16681,2.0,3,133.0
1001,4791300,"Venta de Departamento en Camara Nacional de Aerotransportes con 2 recámaras, ID: 48827",19.42397,-99.16681,2.0,2,77.0
1002,7027000,"Venta de Departamento en Camara Nacional de Aerotransportes con 2 recámaras, ID: 48830",19.42397,-99.16681,2.0,2,106.0
1003,5874200,"Venta de Departamento en Camara Nacional de Aerotransportes con 2 recámaras, ID: 48837",19.42397,-99.16681,2.0,2,91.0
1004,8280100,"Venta de Departamento en Camara Nacional de Aerotransportes con 3 recámaras, ID: 48846",19.42397,-99.16681,2.0,3,136.0
1005,4504000,"Venta de Departamento en Camara Nacional de Aerotransportes con 2 recámaras, ID: 48829",19.42397,-99.16681,2.0,2,67.0
1006,26000000,"Venta de Departamento en Condesa, Cuauhtémoc con 4 recámaras, ID: 48562",19.41455,-99.16647,4.0,4,350.0
1007,5337500,"Venta de Departamento en Camara Nacional de Aerotransportes con 2 recámaras, ID: 48826",19.42397,-99.16681,2.0,2,73.0
1008,7438600,"Venta de Departamento en Camara Nacional de Aerotransportes con 2 recámaras, ID: 48840",19.42397,-99.16681,2.0,2,122.0
1009,9037100,"Venta de Departamento en Camara Nacional de Aerotransportes con 3 recámaras, ID: 48847",19.42397,-99.16681,2.0,3,144.0
1010,7587900,"Venta de Departamento en Camara Nacional de Aerotransportes con 2 recámaras, ID: 48835",19.42397,-99.16681,2.0,2,120.0
1011,4400000,"Departamento en venta Cuauhtémoc, cerca de Reforma (Río Atoyac)",19.42534,-99.1744,2.0,2,
1012,10300000,"Departamento Venta Condesa, Cuauhtémoc",19.41873,-99.17645,3.0,3,
1013,5550000,"Departamento en venta en Coahuila 188, Col Roma Sur",19.4109,-99.16426,2.0,2,
1014,5395000,"Departamento en venta en Avenida Insurgentes Sur 297, Col Hipódromo",19.41481,-99.16593,2.0,1,
1015,6495000,"Departamento en venta en Col. Hipódromo, Cuauhtémoc",19.4122,-99.1718,2.0,2,
1018,18350000,DEPARTAMENTO EN VENTA,19.41134,-99.17021,2.0,2,
1019,6990000,JUAN DE LA BARRERA CONDESA DEPARTAMENTO EN VENTA,19.41701,-99.17598,1.0,2,76.0
1020,10800000,Penthouse con terraza en venta - Condesa,19.4113,-99.17318,3.0,2,
1022,9690000,"Departamento en venta, Hipódromo Condesa, Cuauhtémoc",19.41049,-99.16947,3.0,2,
1023,5600000,"7170 Hamburgo, Juárez",19.42298,-99.17144,1.0,2,112.0
1024,5500000,"14578 Parque España, Colonia Condesa",19.41542,-99.17205,1.0,2,90.0
1025,5500000,"13964 Av. Tamaulipas, Hipódromo Condesa",19.41082,-99.1763,2.0,1,93.0
1026,7300000,"14477 Ensenada, Hipódromo",19.41051,-99.17418,2.0,2,114.0
1027,10000000,"13841 Av. Chapultepec, Juárez",19.42451,-99.16069,2.0,1,145.0
1028,10300000,"14066 Agustín Melgar, Condesa",19.41874,-99.17645,3.0,3,250.0
1029,10000000,"14973 Ámsterdam, Hipódromo",19.41121,-99.16792,2.0,2,120.0
1030,6250000,"13771 Av. Michoacán, Hipódromo",19.41052,-99.16769,2.0,2,90.0
1031,5624582,"D1379 - Av. de los Insurgentes Sur, Hipódromo",19.41116,-99.16702,2.0,2,94.0
1032,19270060,"D1385 - Río Ródano, Cuauhtémoc",19.42404,-99.17575,1.0,1,66.0
1033,7580000,"14458 Ensenada, Hipódromo",19.41051,-99.17418,2.0,2,114.0
1034,5970000,"7169 Av. Cuauhtémoc, Doctores",19.41934,-99.15396,2.0,3,120.0
1035,5395000,"12830 Av. Insurgentes Sur, Hipódromo",19.4148,-99.16596,2.0,1,100.0
1036,12000000,"12962 Ámsterdam, Hipódromo",19.41045,-99.16841,1.0,3,250.0
1037,5550000,"12666 Medellín, Roma Sur",19.41089,-99.16425,2.0,2,111.0
1040,6495000,"12604 Av. Nuevo León, Hipódromo",19.41221,-99.1718,2.0,2,112.0
1041,22890000,"12187 Veracruz, Condesa",19.41675,-99.17352,,4,309.0
1042,11000000,"11997 Nuevo León, Hipódromo",19.4122,-99.1718,3.0,3,180.0
1043,6990000,"12110 - Juan de la Barrera, Condesa",19.41547,-99.17348,2.0,2,95.0
1044,7500000,"11894 Av. Parque España, Condesa",19.41452,-99.17218,3.0,3,154.0
1045,12000000,"10995 Avenida Veracruz, Condesa",19.41964,-99.17664,3.0,3,263.0
1046,15200000,"11057 Sonora, Hipódromo",19.41341,-99.16779,2.0,2,183.0
1047,7900000,"10551 Ámsterdam, Hipódromo",19.41296,-99.17059,2.0,1,128.0
1048,5200000,"10422 Av. Paseo de la Reforma, Cuauhtémoc",19.42421,-99.17473,2.0,2,71.0
1049,7200000,"D1120 - Amsterdam, Hipódromo",19.41538,-99.17005,2.0,2,90.0
1050,4134720,"D1113 - Coahuila, Roma Sur",19.41156,-99.16055,2.0,2,70.0
1051,16500000,"10229 Av. Mazatlán, Condesa",19.41464,-99.17661,3.0,3,180.0
1052,9999999,"10065 Nuevo León, Hipódromo",19.41101,-99.17228,3.0,2,140.0
1053,5600000,"9892 Av. Chapultepec, Juárez",19.42468,-99.15986,2.0,3,70.0
1054,4650000,"9845 Teotihuacán, Hipódromo",19.41187,-99.16716,1.0,2,92.0
1055,4500000,"8975 Tamaulipas, Hipódromo Condesa",19.41113,-99.17401,2.0,2,99.0
1056,5883360,"D1043 - Av. Insurgentes, Condesa",19.41116,-99.16704,2.0,2,90.0
1057,5190000,"8858 Av. Tamaulipas, Condesa",19.41294,-99.17284,2.0,2,85.0
1058,3200000,"8761 Av. Cuauhtémoc, Doctores",19.41934,-99.15396,1.0,1,50.0
1059,4200000,"8683 Mexico, Hipódromo",19.41518,-99.16932,1.0,2,80.0
1062,3100000,"7999 Nápoles, Juárez",19.42494,-99.1593,1.0,2,65.0
1063,8800000,"7631 Campeche, Hipódromo Condesa",19.41095,-99.17656,2.0,3,183.0
1064,7490000,"7628 - Parque España, Condesa",19.41454,-99.17226,3.0,3,154.0
1065,5200000,"7470 Av. Nuevo León, Hipódromo Condesa",19.41244,-99.17167,2.0,1,75.0
1066,8000000,"6929 Nuevo Leon, Hipódromo Condesa",19.41118,-99.17229,3.0,3,190.0
1067,5800000,"6922 Fernando Montes de Oca, Condesa",19.4119,-99.17282,2.0,2,120.0
1068,1750000,"6439 Dr. Barajas, Doctores",19.41755,-99.15385,1.0,2,56.0
1069,4950000,"6190 - Zamora, Condesa",19.41954,-99.17646,1.0,3,140.0
1070,8200000,"5998 Ámsterdam, Hipódromo",19.41305,-99.1705,2.0,2,122.0
1071,5395000,"5729 Avenida Insurgentes Sur, Hipódromo",19.4148,-99.16596,2.0,1,100.0
1072,7600000,"5626 Insurgentes Sur, Condesa",19.41353,-99.16639,2.0,2,110.0
1073,7000000,"5514 Avenida Michoacán, Hipódromo",19.4113,-99.17318,2.0,3,117.0
1074,6070000,"D783 - Álvaro Obregón, Hipódromo Condesa",19.41625,-99.16825,2.0,2,90.0
1075,9500000,"3702 Av. Veracruz, Condesa",19.41973,-99.17648,2.0,3,273.0
1076,5550000,"5191 Coahuila, Roma Sur",19.41073,-99.16489,2.0,2,111.0
1077,6480000,"4541 Av. Amsterdam, Condesa",19.41359,-99.16712,1.0,2,130.0
1078,5990000,"3727 Nuevo León, Hipódromo",19.41512,-99.17013,2.0,2,97.0
1079,5500000,"3731 Hamburgo, Juárez",19.42367,-99.17039,2.0,3,115.0
1080,7000000,"3703 Av. Michoacán, Hipódromo",19.4113,-99.17318,2.0,3,117.0
1100,4200000,"Departamento en venta en Hipódromo Condesa, Cuauhtémoc, Distrito Federal",19.41454,-99.16845,1.0,2,
1102,6300000,Amplio y Bonito Departamento en Colonia Járez,19.42583,-99.16821,2.0,2,
1103,17400000,Departamento nuevo en pre venta Hipódromo Condesa Cuauhtémoc CDMX,19.41051,-99.17418,2.0,3,
